<?xml version="1.0" encoding="UTF-8"?>
<kml xmlns="http://www.opengis.net/kml/2.2">
  <Document>
    <name>EcoBici CDMX - Mundial 2026</name>
    <description>Estaciones EcoBici en Ciudad de M茅xico</description>

    <Placemark>
      <name>5 de Mayo - Bol铆var</name>
      <description><![CDATA[<b> Estaci贸n EcoBici</b><br/>#锔 Estaci贸n: CE-55<br/> Capacidad: 26<br/>]]></description>
      <Point>
        <coordinates>-99.1426654,19.4039388,0</coordinates>
      </Point>
    </Placemark>

    <Placemark>
      <name>Andr茅s Bello - George Eliot</name>
      <description><![CDATA[<b> Estaci贸n EcoBici</b><br/>#锔 Estaci贸n: CE-237-238<br/> Capacidad: 30<br/>]]></description>
      <Point>
        <coordinates>-99.1942977,19.4269264,0</coordinates>
      </Point>
    </Placemark>

    <Placemark>
      <name>Auditorio Nacional</name>
      <description><![CDATA[<b> Estaci贸n EcoBici</b><br/> Capacidad: 40<br/> Paseo de la Reforma 50]]></description>
      <Point>
        <coordinates>-99.1949256,19.4248097,0</coordinates>
      </Point>
    </Placemark>

    <Placemark>
      <name>Av. Ju谩rez - Balderas</name>
      <description><![CDATA[<b> Estaci贸n EcoBici</b><br/>#锔 Estaci贸n: CE-260<br/> Capacidad: 26<br/>]]></description>
      <Point>
        <coordinates>-99.14756,19.43517,0</coordinates>
      </Point>
    </Placemark>

    <Placemark>
      <name>Bellas Artes - Eje Central</name>
      <description><![CDATA[<b> Estaci贸n EcoBici</b><br/>#锔 Estaci贸n: 42<br/> Capacidad: 32<br/>]]></description>
      <Point>
        <coordinates>-99.1412,19.4352,0</coordinates>
      </Point>
    </Placemark>

    <Placemark>
      <name>Calzada De Guadalupe</name>
      <description><![CDATA[<b> Estaci贸n EcoBici</b><br/> Capacidad: 35<br/> Calzada de Guadalupe]]></description>
      <Point>
        <coordinates>-99.1237377,19.4682949,0</coordinates>
      </Point>
    </Placemark>

    <Placemark>
      <name>Campos El铆seos - Goldsmith</name>
      <description><![CDATA[<b> Estaci贸n EcoBici</b><br/>#锔 Estaci贸n: CE-451<br/> Capacidad: 30<br/>]]></description>
      <Point>
        <coordinates>-99.2010509,19.4289951,0</coordinates>
      </Point>
    </Placemark>

    <Placemark>
      <name>Campos El铆seos - La Fontaine</name>
      <description><![CDATA[<b> Estaci贸n EcoBici</b><br/>#锔 Estaci贸n: CE-228<br/> Capacidad: 30<br/>]]></description>
      <Point>
        <coordinates>-99.199051,19.427731,0</coordinates>
      </Point>
    </Placemark>

    <Placemark>
      <name>Campos El铆seos - Moliere</name>
      <description><![CDATA[<b> Estaci贸n EcoBici</b><br/>#锔 Estaci贸n: CE-235-236<br/> Capacidad: 30<br/>]]></description>
      <Point>
        <coordinates>-99.2027562,19.4296143,0</coordinates>
      </Point>
    </Placemark>

    <Placemark>
      <name>Campos El铆seos-Polanco</name>
      <description><![CDATA[<b> Estaci贸n EcoBici</b><br/> Capacidad: 32<br/> Campos El铆seos]]></description>
      <Point>
        <coordinates>-99.1933694,19.4280388,0</coordinates>
      </Point>
    </Placemark>

    <Placemark>
      <name>CE-029 Reforma - Bucareli</name>
      <description><![CDATA[<b> Estaci贸n EcoBici</b><br/> Capacidad: 30<br/> Reforma - Bucareli]]></description>
      <Point>
        <coordinates>-99.1522418,19.4346719,0</coordinates>
      </Point>
    </Placemark>

    <Placemark>
      <name>CE-041 Reforma - Av. de la Rep煤blica</name>
      <description><![CDATA[<b> Estaci贸n EcoBici</b><br/> Capacidad: 32<br/> Reforma - Av. de la Rep煤blica]]></description>
      <Point>
        <coordinates>-99.1452914,19.4388817,0</coordinates>
      </Point>
    </Placemark>

    <Placemark>
      <name>CE-043 Revillagigedo - Ju谩rez</name>
      <description><![CDATA[<b> Estaci贸n EcoBici</b><br/> Capacidad: 30<br/> Revillagigedo - Ju谩rez]]></description>
      <Point>
        <coordinates>-99.1464407,19.4319538,0</coordinates>
      </Point>
    </Placemark>

    <Placemark>
      <name>CE-048 Independencia - Azueta</name>
      <description><![CDATA[<b> Estaci贸n EcoBici</b><br/> Capacidad: 26<br/> Independencia - Azueta]]></description>
      <Point>
        <coordinates>-99.1465854,19.4350041,0</coordinates>
      </Point>
    </Placemark>

    <Placemark>
      <name>CE-052 Hidalgo - Trujano</name>
      <description><![CDATA[<b> Estaci贸n EcoBici</b><br/> Capacidad: 30<br/> Hidalgo - Trujano]]></description>
      <Point>
        <coordinates>-99.1477993,19.4374244,0</coordinates>
      </Point>
    </Placemark>

    <Placemark>
      <name>CE-055 5 De Mayo - Bol铆var</name>
      <description><![CDATA[<b> Estaci贸n EcoBici</b><br/> Capacidad: 32<br/> 5 De Mayo - Bol铆var]]></description>
      <Point>
        <coordinates>-99.1349046,19.4339494,0</coordinates>
      </Point>
    </Placemark>

    <Placemark>
      <name>CE-065 Marconi - Tacuba</name>
      <description><![CDATA[<b> Estaci贸n EcoBici</b><br/> Capacidad: 32<br/> Marconi - Tacuba]]></description>
      <Point>
        <coordinates>-99.1399037,19.4362726,0</coordinates>
      </Point>
    </Placemark>

    <Placemark>
      <name>CE-082 Independencia - Marroqu铆</name>
      <description><![CDATA[<b> Estaci贸n EcoBici</b><br/> Capacidad: 28<br/> Independencia - Marroqu铆]]></description>
      <Point>
        <coordinates>-99.1437891,19.4307097,0</coordinates>
      </Point>
    </Placemark>

    <Placemark>
      <name>CE-087 Gante - Venustiano Carranza</name>
      <description><![CDATA[<b> Estaci贸n EcoBici</b><br/> Capacidad: 30<br/> Gante - Venustiano Carranza]]></description>
      <Point>
        <coordinates>-99.1395588,19.4319211,0</coordinates>
      </Point>
    </Placemark>

    <Placemark>
      <name>CE-088 2a Cerrada de 5 de Mayo - Palma</name>
      <description><![CDATA[<b> Estaci贸n EcoBici</b><br/> Capacidad: 28<br/> 2a Cerrada de 5 de Mayo - Palma]]></description>
      <Point>
        <coordinates>-99.0366964,19.3426039,0</coordinates>
      </Point>
    </Placemark>

    <Placemark>
      <name>CE-089 Rep煤blica de Guatemala - Monte de Piedad</name>
      <description><![CDATA[<b> Estaci贸n EcoBici</b><br/> Capacidad: 35<br/> Rep煤blica de Guatemala - Monte de Piedad]]></description>
      <Point>
        <coordinates>-99.1321677,19.4348911,0</coordinates>
      </Point>
    </Placemark>

    <Placemark>
      <name>CE-090 Jos茅 Mar铆a Pino Su谩rez - Corregidora</name>
      <description><![CDATA[<b> Estaci贸n EcoBici</b><br/> Capacidad: 32<br/> Jos茅 Mar铆a Pino Su谩rez - Corregidora]]></description>
      <Point>
        <coordinates>-99.1323564,19.4322484,0</coordinates>
      </Point>
    </Placemark>

    <Placemark>
      <name>CE-091 Rep煤blica de Cuba-Allende</name>
      <description><![CDATA[<b> Estaci贸n EcoBici</b><br/> Capacidad: 28<br/> Rep煤blica de Cuba - Allende]]></description>
      <Point>
        <coordinates>-99.1348512,19.4368175,0</coordinates>
      </Point>
    </Placemark>

    <Placemark>
      <name>CE-092 San Ildefonso-Rep煤blica de Argentina</name>
      <description><![CDATA[<b> Estaci贸n EcoBici</b><br/> Capacidad: 28<br/> San Ildefonso - Rep煤blica de Argentina]]></description>
      <Point>
        <coordinates>-99.1276457,19.4360517,0</coordinates>
      </Point>
    </Placemark>

    <Placemark>
      <name>CE-093 Palma Norte-Rep煤blica de Cuba</name>
      <description><![CDATA[<b> Estaci贸n EcoBici</b><br/> Capacidad: 30<br/> Palma Norte - Rep煤blica de Cuba]]></description>
      <Point>
        <coordinates>-99.1347291,19.4369804,0</coordinates>
      </Point>
    </Placemark>

    <Placemark>
      <name>CE-094 Lic. Verdad-Moneda</name>
      <description><![CDATA[<b> Estaci贸n EcoBici</b><br/> Capacidad: 30<br/> Lic. Verdad - Moneda]]></description>
      <Point>
        <coordinates>-99.1306793,19.4336305,0</coordinates>
      </Point>
    </Placemark>

    <Placemark>
      <name>CE-095 20 de Noviembre-Venustiano Carranza</name>
      <description><![CDATA[<b> Estaci贸n EcoBici</b><br/> Capacidad: 30<br/> 20 de Noviembre - Venustiano Carranza]]></description>
      <Point>
        <coordinates>-99.1342298,19.4274538,0</coordinates>
      </Point>
    </Placemark>

    <Placemark>
      <name>CE-096 L贸pez-Ayuntamiento</name>
      <description><![CDATA[<b> Estaci贸n EcoBici</b><br/> Capacidad: 28<br/> L贸pez - Ayuntamiento]]></description>
      <Point>
        <coordinates>-99.1424629,19.4295471,0</coordinates>
      </Point>
    </Placemark>

    <Placemark>
      <name>CE-097 Rep煤blica de Salvador-Pino Su谩rez</name>
      <description><![CDATA[<b> Estaci贸n EcoBici</b><br/> Capacidad: 28<br/> Rep煤blica de Salvador - Pino Su谩rez]]></description>
      <Point>
        <coordinates>-99.1349039,19.429335,0</coordinates>
      </Point>
    </Placemark>

    <Placemark>
      <name>CE-098 Emilio Dond茅-Av. Balderas</name>
      <description><![CDATA[<b> Estaci贸n EcoBici</b><br/> Capacidad: 26<br/> Emilio Dond茅 - Av. Balderas]]></description>
      <Point>
        <coordinates>-99.1487444,19.4303405,0</coordinates>
      </Point>
    </Placemark>

    <Placemark>
      <name>CE-099 Ernesto Pugibet-Luis Moya</name>
      <description><![CDATA[<b> Estaci贸n EcoBici</b><br/> Capacidad: 28<br/> Ernesto Pugibet - Luis Moya]]></description>
      <Point>
        <coordinates>-99.1432222,19.429588,0</coordinates>
      </Point>
    </Placemark>

    <Placemark>
      <name>CE-100 20 de Noviembre-Mesones</name>
      <description><![CDATA[<b> Estaci贸n EcoBici</b><br/> Capacidad: 30<br/> 20 de Noviembre - Mesones]]></description>
      <Point>
        <coordinates>-99.1339897,19.4280687,0</coordinates>
      </Point>
    </Placemark>

    <Placemark>
      <name>CE-102 Echeveste-Bolivar</name>
      <description><![CDATA[<b> Estaci贸n EcoBici</b><br/> Capacidad: 30<br/> Echeveste - Bolivar]]></description>
      <Point>
        <coordinates>-99.1395829,19.428267,0</coordinates>
      </Point>
    </Placemark>

    <Placemark>
      <name>CE-104 San Jer贸nimo-Isabel la Cat贸lica</name>
      <description><![CDATA[<b> Estaci贸n EcoBici</b><br/> Capacidad: 32<br/> San Jer贸nimo - Isabel la Cat贸lica]]></description>
      <Point>
        <coordinates>-99.1330658,19.4267183,0</coordinates>
      </Point>
    </Placemark>

    <Placemark>
      <name>CE-260 Av. Ju谩rez-Balderas</name>
      <description><![CDATA[<b> Estaci贸n EcoBici</b><br/> Capacidad: 28<br/> Av. Ju谩rez - Balderas]]></description>
      <Point>
        <coordinates>-99.1477632,19.4353659,0</coordinates>
      </Point>
    </Placemark>

    <Placemark>
      <name>CE-262 Rep煤blica de Cuba-Rep煤blica de Brasil</name>
      <description><![CDATA[<b> Estaci贸n EcoBici</b><br/> Capacidad: 32<br/> Rep煤blica de Cuba - Rep煤blica de Brasil]]></description>
      <Point>
        <coordinates>-99.1336623,19.4368507,0</coordinates>
      </Point>
    </Placemark>

    <Placemark>
      <name>Cerrito Del Tepeyac</name>
      <description><![CDATA[<b> Estaci贸n EcoBici</b><br/> Capacidad: 25<br/> Acceso al Cerrito]]></description>
      <Point>
        <coordinates>-99.1140113,19.4907285,0</coordinates>
      </Point>
    </Placemark>

    <Placemark>
      <name>Cineteca Nacional</name>
      <description><![CDATA[<b> Estaci贸n EcoBici</b><br/> Capacidad: 30<br/> Av. M茅xico Coyoac谩n]]></description>
      <Point>
        <coordinates>-99.1385,19.3495,0</coordinates>
      </Point>
    </Placemark>

    <Placemark>
      <name>Circuito Mahatma Gandhi - Reforma</name>
      <description><![CDATA[<b> Estaci贸n EcoBici</b><br/>#锔 Estaci贸n: CE-194<br/> Capacidad: 30<br/>]]></description>
      <Point>
        <coordinates>-99.1904239,19.4256206,0</coordinates>
      </Point>
    </Placemark>

    <Placemark>
      <name>Constituyentes-Papalote</name>
      <description><![CDATA[<b> Estaci贸n EcoBici</b><br/> Capacidad: 28<br/> Av. Constituyentes 268]]></description>
      <Point>
        <coordinates>-99.1913831,19.4117112,0</coordinates>
      </Point>
    </Placemark>

    <Placemark>
      <name>Coyoac谩n-Centenario</name>
      <description><![CDATA[<b> Estaci贸n EcoBici</b><br/> Capacidad: 30<br/> Jard铆n Centenario]]></description>
      <Point>
        <coordinates>-99.1625,19.3495,0</coordinates>
      </Point>
    </Placemark>

    <Placemark>
      <name>Cozumel - Puebla</name>
      <description><![CDATA[<b> Estaci贸n EcoBici</b><br/>#锔 Estaci贸n: CE-038<br/> Capacidad: 25<br/><p>Cerca de restaurantes</p><br/> Cozumel esquina Puebla, Roma Norte, Cuauht茅moc, 06700 Ciudad de M茅xico]]></description>
      <Point>
        <coordinates>-99.1713679,19.4207383,0</coordinates>
      </Point>
    </Placemark>

    <Placemark>
      <name>Deportivo Tepeyac</name>
      <description><![CDATA[<b> Estaci贸n EcoBici</b><br/> Capacidad: 28<br/> Deportivo Tepeyac]]></description>
      <Point>
        <coordinates>-99.1200213,19.4716575,0</coordinates>
      </Point>
    </Placemark>

    <Placemark>
      <name>Divisi贸n Del Norte</name>
      <description><![CDATA[<b> Estaci贸n EcoBici</b><br/> Capacidad: 35<br/> Av. Divisi贸n del Norte]]></description>
      <Point>
        <coordinates>-99.1545,19.3525,0</coordinates>
      </Point>
    </Placemark>

    <Placemark>
      <name>EcoBici Embarcadero Belem</name>
      <description><![CDATA[<b> Estaci贸n EcoBici</b><br/> Capacidad: 10<br/> Barrio Belem]]></description>
      <Point>
        <coordinates>-99.101617,19.2596489,0</coordinates>
      </Point>
    </Placemark>

    <Placemark>
      <name>EcoBici Embarcadero Cuemanco</name>
      <description><![CDATA[<b> Estaci贸n EcoBici</b><br/> Capacidad: 15<br/> Anillo Perif茅rico]]></description>
      <Point>
        <coordinates>-99.1021725,19.2868829,0</coordinates>
      </Point>
    </Placemark>

    <Placemark>
      <name>EcoBici Embarcadero Nativitas</name>
      <description><![CDATA[<b> Estaci贸n EcoBici</b><br/> Capacidad: 15<br/> Violeta S/N]]></description>
      <Point>
        <coordinates>-99.1018,19.258,0</coordinates>
      </Point>
    </Placemark>

    <Placemark>
      <name>EcoBici Jard铆n Bot谩nico</name>
      <description><![CDATA[<b> Estaci贸n EcoBici</b><br/> Capacidad: 10<br/> Parque Ecol贸gico]]></description>
      <Point>
        <coordinates>-99.0755,19.288,0</coordinates>
      </Point>
    </Placemark>

    <Placemark>
      <name>EcoBici Mercado De Plantas</name>
      <description><![CDATA[<b> Estaci贸n EcoBici</b><br/> Capacidad: 12<br/> Madreselva S/N]]></description>
      <Point>
        <coordinates>-99.1025,19.257,0</coordinates>
      </Point>
    </Placemark>

    <Placemark>
      <name>EcoBici Mercado Xochimilco</name>
      <description><![CDATA[<b> Estaci贸n EcoBici</b><br/> Capacidad: 18<br/> Av. Guadalupe I. Ram铆rez]]></description>
      <Point>
        <coordinates>-99.1028,19.2572,0</coordinates>
      </Point>
    </Placemark>

    <Placemark>
      <name>EcoBici Museo Dolores Olmedo</name>
      <description><![CDATA[<b> Estaci贸n EcoBici</b><br/> Capacidad: 12<br/> Av. M茅xico 5843]]></description>
      <Point>
        <coordinates>-99.1057,19.2549,0</coordinates>
      </Point>
    </Placemark>

    <Placemark>
      <name>EcoBici Parque Ecol贸gico</name>
      <description><![CDATA[<b> Estaci贸n EcoBici</b><br/> Capacidad: 18<br/> Perif茅rico Oriente]]></description>
      <Point>
        <coordinates>-99.0748,19.2891,0</coordinates>
      </Point>
    </Placemark>

    <Placemark>
      <name>EcoBici San Bernardino</name>
      <description><![CDATA[<b> Estaci贸n EcoBici</b><br/> Capacidad: 14<br/> Plaza San Bernardino]]></description>
      <Point>
        <coordinates>-99.104,19.2575,0</coordinates>
      </Point>
    </Placemark>

    <Placemark>
      <name>EcoBici Xochimilco Centro</name>
      <description><![CDATA[<b> Estaci贸n EcoBici</b><br/> Capacidad: 20<br/> Plaza Principal]]></description>
      <Point>
        <coordinates>-99.1031,19.2574,0</coordinates>
      </Point>
    </Placemark>

    <Placemark>
      <name>Francisco Sosa</name>
      <description><![CDATA[<b> Estaci贸n EcoBici</b><br/> Capacidad: 25<br/> Francisco Sosa]]></description>
      <Point>
        <coordinates>-99.168,19.3475,0</coordinates>
      </Point>
    </Placemark>

    <Placemark>
      <name>Frida Kahlo</name>
      <description><![CDATA[<b> Estaci贸n EcoBici</b><br/> Capacidad: 28<br/> Londres y Allende]]></description>
      <Point>
        <coordinates>-99.1628,19.3548,0</coordinates>
      </Point>
    </Placemark>

    <Placemark>
      <name>Gandhi-Tamayo</name>
      <description><![CDATA[<b> Estaci贸n EcoBici</b><br/> Capacidad: 28<br/> Reforma y Gandhi]]></description>
      <Point>
        <coordinates>-99.1423348,19.4607762,0</coordinates>
      </Point>
    </Placemark>

    <Placemark>
      <name>General Anaya</name>
      <description><![CDATA[<b> Estaci贸n EcoBici</b><br/> Capacidad: 30<br/> Av. General Anaya]]></description>
      <Point>
        <coordinates>-99.136,19.3595,0</coordinates>
      </Point>
    </Placemark>

    <Placemark>
      <name>Hamburgo - Amberes</name>
      <description><![CDATA[<b> Estaci贸n EcoBici</b><br/>#锔 Estaci贸n: CE-030<br/> Capacidad: 25<br/><p>Centro comercial</p><br/> Hamburgo esquina Amberes, Ju谩rez, Cuauht茅moc, 06600 Ciudad de M茅xico]]></description>
      <Point>
        <coordinates>-99.1654408,19.4259021,0</coordinates>
      </Point>
    </Placemark>

    <Placemark>
      <name>Hamburgo - Insurgentes</name>
      <description><![CDATA[<b> Estaci贸n EcoBici</b><br/>#锔 Estaci贸n: CE-031<br/> Capacidad: 30<br/><p>Esquina importante</p><br/> Hamburgo esquina Insurgentes, Ju谩rez, Cuauht茅moc, 06600 Ciudad de M茅xico]]></description>
      <Point>
        <coordinates>-99.1609233,19.4280438,0</coordinates>
      </Point>
    </Placemark>

    <Placemark>
      <name>Hidalgo - Trujano</name>
      <description><![CDATA[<b> Estaci贸n EcoBici</b><br/>#锔 Estaci贸n: CE-052<br/> Capacidad: 26<br/>]]></description>
      <Point>
        <coordinates>-99.1435707,19.4384225,0</coordinates>
      </Point>
    </Placemark>

    <Placemark>
      <name>Independencia - Azueta</name>
      <description><![CDATA[<b> Estaci贸n EcoBici</b><br/>#锔 Estaci贸n: CE-048<br/> Capacidad: 24<br/>]]></description>
      <Point>
        <coordinates>-99.1466906,19.4344147,0</coordinates>
      </Point>
    </Placemark>

    <Placemark>
      <name>Independencia - M谩rroqu铆</name>
      <description><![CDATA[<b> Estaci贸n EcoBici</b><br/>#锔 Estaci贸n: CE-082<br/> Capacidad: 24<br/>]]></description>
      <Point>
        <coordinates>-99.143312,19.4328563,0</coordinates>
      </Point>
    </Placemark>

    <Placemark>
      <name>Insurgentes-Tepeyac</name>
      <description><![CDATA[<b> Estaci贸n EcoBici</b><br/> Capacidad: 32<br/> Av. Insurgentes Norte]]></description>
      <Point>
        <coordinates>-99.1220962,19.4855507,0</coordinates>
      </Point>
    </Placemark>

    <Placemark>
      <name>Jalapa - Puebla</name>
      <description><![CDATA[<b> Estaci贸n EcoBici</b><br/>#锔 Estaci贸n: CE-126<br/> Capacidad: 25<br/><p>Zona de bares</p><br/> Jalapa esquina Puebla, Roma Norte, Cuauht茅moc, 06700 Ciudad de M茅xico]]></description>
      <Point>
        <coordinates>-99.1622148,19.4224113,0</coordinates>
      </Point>
    </Placemark>

    <Placemark>
      <name>Jard铆n Hidalgo</name>
      <description><![CDATA[<b> Estaci贸n EcoBici</b><br/> Capacidad: 28<br/> Plaza Hidalgo]]></description>
      <Point>
        <coordinates>-99.1612,19.3508,0</coordinates>
      </Point>
    </Placemark>

    <Placemark>
      <name>La Villa-Bas铆lica</name>
      <description><![CDATA[<b> Estaci贸n EcoBici</b><br/> Capacidad: 40<br/> Plaza Mariana]]></description>
      <Point>
        <coordinates>-99.11837,19.48174,0</coordinates>
      </Point>
    </Placemark>

    <Placemark>
      <name>Lago Mayor Chapultepec</name>
      <description><![CDATA[<b> Estaci贸n EcoBici</b><br/> Capacidad: 24<br/> Lago Mayor]]></description>
      <Point>
        <coordinates>-99.1987315,19.4177676,0</coordinates>
      </Point>
    </Placemark>

    <Placemark>
      <name>Lieja-Polanco</name>
      <description><![CDATA[<b> Estaci贸n EcoBici</b><br/> Capacidad: 30<br/> Av. Ej茅rcito Nacional y Lieja]]></description>
      <Point>
        <coordinates>-99.1748505,19.422183,0</coordinates>
      </Point>
    </Placemark>

    <Placemark>
      <name>Lindavista-Villa</name>
      <description><![CDATA[<b> Estaci贸n EcoBici</b><br/> Capacidad: 32<br/> Av. Insurgentes Norte]]></description>
      <Point>
        <coordinates>-99.1324282,19.5037694,0</coordinates>
      </Point>
    </Placemark>

    <Placemark>
      <name>Liverpool - G茅nova</name>
      <description><![CDATA[<b> Estaci贸n EcoBici</b><br/>#锔 Estaci贸n: CE-034<br/> Capacidad: 25<br/><p>Zona de compras</p><br/> Liverpool esquina G茅nova, Ju谩rez, Cuauht茅moc, 06600 Ciudad de M茅xico]]></description>
      <Point>
        <coordinates>-99.163192,19.4247433,0</coordinates>
      </Point>
    </Placemark>

    <Placemark>
      <name>Londres - Florencia</name>
      <description><![CDATA[<b> Estaci贸n EcoBici</b><br/>#锔 Estaci贸n: CE-033<br/> Capacidad: 25<br/><p>Zona de restaurantes</p><br/> Londres esquina Florencia, Ju谩rez, Cuauht茅moc, 06600 Ciudad de M茅xico]]></description>
      <Point>
        <coordinates>11.2576706,43.7699685,0</coordinates>
      </Point>
    </Placemark>

    <Placemark>
      <name>Londres - Sevilla</name>
      <description><![CDATA[<b> Estaci贸n EcoBici</b><br/>#锔 Estaci贸n: CE-032<br/> Capacidad: 25<br/><p>Centro de Zona Rosa</p><br/> Londres esquina Sevilla, Ju谩rez, Cuauht茅moc, 06600 Ciudad de M茅xico]]></description>
      <Point>
        <coordinates>-99.1702776,19.4225395,0</coordinates>
      </Point>
    </Placemark>

    <Placemark>
      <name>Madero - Isabel la Cat贸lica</name>
      <description><![CDATA[<b> Estaci贸n EcoBici</b><br/>#锔 Estaci贸n: 45<br/> Capacidad: 28<br/>]]></description>
      <Point>
        <coordinates>-99.1362593,19.4334639,0</coordinates>
      </Point>
    </Placemark>

    <Placemark>
      <name>Marcon卯 - Tacuba</name>
      <description><![CDATA[<b> Estaci贸n EcoBici</b><br/>#锔 Estaci贸n: CE-065<br/> Capacidad: 28<br/>]]></description>
      <Point>
        <coordinates>-99.1399509,19.4359816,0</coordinates>
      </Point>
    </Placemark>

    <Placemark>
      <name>Metro La Villa</name>
      <description><![CDATA[<b> Estaci贸n EcoBici</b><br/> Capacidad: 38<br/> Metro La Villa-Bas铆lica]]></description>
      <Point>
        <coordinates>-99.11837,19.48174,0</coordinates>
      </Point>
    </Placemark>

    <Placemark>
      <name>Miguel ngel De Quevedo</name>
      <description><![CDATA[<b> Estaci贸n EcoBici</b><br/> Capacidad: 40<br/> Av. Miguel ngel de Quevedo]]></description>
      <Point>
        <coordinates>-99.174,19.3428,0</coordinates>
      </Point>
    </Placemark>

    <Placemark>
      <name>Misterios Norte</name>
      <description><![CDATA[<b> Estaci贸n EcoBici</b><br/> Capacidad: 30<br/> Calzada de los Misterios]]></description>
      <Point>
        <coordinates>-99.208552,19.378487,0</coordinates>
      </Point>
    </Placemark>

    <Placemark>
      <name>Moliere-Polanco</name>
      <description><![CDATA[<b> Estaci贸n EcoBici</b><br/> Capacidad: 30<br/> Moli猫re y Homero]]></description>
      <Point>
        <coordinates>-99.2017855,19.4333954,0</coordinates>
      </Point>
    </Placemark>

    <Placemark>
      <name>Molino del Rey - Av. Constituyentes</name>
      <description><![CDATA[<b> Estaci贸n EcoBici</b><br/>#锔 Estaci贸n: CE-711<br/> Capacidad: 30<br/>]]></description>
      <Point>
        <coordinates>-99.2079066,19.4027468,0</coordinates>
      </Point>
    </Placemark>

    <Placemark>
      <name>Molino del Rey - Glorieta de la Lealtad</name>
      <description><![CDATA[<b> Estaci贸n EcoBici</b><br/>#锔 Estaci贸n: CE-710<br/> Capacidad: 30<br/>]]></description>
      <Point>
        <coordinates>-99.1928126,19.4173003,0</coordinates>
      </Point>
    </Placemark>

    <Placemark>
      <name>Montes Urales - Monte Pelvoux</name>
      <description><![CDATA[<b> Estaci贸n EcoBici</b><br/>#锔 Estaci贸n: CE-454<br/> Capacidad: 30<br/>]]></description>
      <Point>
        <coordinates>-99.2041693,19.4256099,0</coordinates>
      </Point>
    </Placemark>

    <Placemark>
      <name>Museo De Antropolog铆a</name>
      <description><![CDATA[<b> Estaci贸n EcoBici</b><br/> Capacidad: 32<br/> Reforma y Calzada Gandhi]]></description>
      <Point>
        <coordinates>-99.1862786,19.4260032,0</coordinates>
      </Point>
    </Placemark>

    <Placemark>
      <name>Museo Rufino Tamayo</name>
      <description><![CDATA[<b> Estaci贸n EcoBici</b><br/> Capacidad: 26<br/> Reforma y Guillermo Gonz谩lez Camarena]]></description>
      <Point>
        <coordinates>-99.181716,19.42572,0</coordinates>
      </Point>
    </Placemark>

    <Placemark>
      <name>Oaxaca - Puebla</name>
      <description><![CDATA[<b> Estaci贸n EcoBici</b><br/>#锔 Estaci贸n: CE-040<br/> Capacidad: 25<br/><p>Zona residencial</p><br/> Oaxaca esquina Puebla, Roma Norte, Cuauht茅moc, 06700 Ciudad de M茅xico]]></description>
      <Point>
        <coordinates>-99.133208,19.4326077,0</coordinates>
      </Point>
    </Placemark>

    <Placemark>
      <name>Palacio Nacional - Correo Mayor</name>
      <description><![CDATA[<b> Estaci贸n EcoBici</b><br/>#锔 Estaci贸n: 89<br/> Capacidad: 26<br/>]]></description>
      <Point>
        <coordinates>-99.1313531,19.4328868,0</coordinates>
      </Point>
    </Placemark>

    <Placemark>
      <name>Pedregal - Ferrocarril De Cuernavaca</name>
      <description><![CDATA[<b> Estaci贸n EcoBici</b><br/>#锔 Estaci贸n: CE-455<br/> Capacidad: 30<br/>]]></description>
      <Point>
        <coordinates>-99.2192939,19.3135357,0</coordinates>
      </Point>
    </Placemark>

    <Placemark>
      <name>Pedregal - Teapa</name>
      <description><![CDATA[<b> Estaci贸n EcoBici</b><br/>#锔 Estaci贸n: CE-453<br/> Capacidad: 30<br/>]]></description>
      <Point>
        <coordinates>-99.2037039,19.4254022,0</coordinates>
      </Point>
    </Placemark>

    <Placemark>
      <name>Plaza Madrid - Medell铆n</name>
      <description><![CDATA[<b> Estaci贸n EcoBici</b><br/>#锔 Estaci贸n: CE-047<br/> Capacidad: 25<br/><p>Zona comercial</p><br/> Plaza Madrid esquina Medell铆n, Roma Norte, Cuauht茅moc, 06700 Ciudad de M茅xico]]></description>
      <Point>
        <coordinates>-75.5658153,6.2476376,0</coordinates>
      </Point>
    </Placemark>

    <Placemark>
      <name>Pocito</name>
      <description><![CDATA[<b> Estaci贸n EcoBici</b><br/> Capacidad: 26<br/> Capilla del Pocito]]></description>
      <Point>
        <coordinates>-99.1828896,19.4545929,0</coordinates>
      </Point>
    </Placemark>

    <Placemark>
      <name>Polanco-Masaryk</name>
      <description><![CDATA[<b> Estaci贸n EcoBici</b><br/> Capacidad: 35<br/> Av. Presidente Masaryk]]></description>
      <Point>
        <coordinates>-99.1967724,19.4316765,0</coordinates>
      </Point>
    </Placemark>

    <Placemark>
      <name>Puebla - Medell铆n</name>
      <description><![CDATA[<b> Estaci贸n EcoBici</b><br/>#锔 Estaci贸n: CE-039<br/> Capacidad: 25<br/><p>Zona de caf茅s</p><br/> Puebla esquina Medell铆n, Roma Norte, Cuauht茅moc, 06700 Ciudad de M茅xico]]></description>
      <Point>
        <coordinates>-75.5658153,6.2476376,0</coordinates>
      </Point>
    </Placemark>

    <Placemark>
      <name>Reforma - Av. de la Rep煤blica</name>
      <description><![CDATA[<b> Estaci贸n EcoBici</b><br/>#锔 Estaci贸n: CE-41<br/> Capacidad: 24<br/>]]></description>
      <Point>
        <coordinates>-99.1498741,19.4357242,0</coordinates>
      </Point>
    </Placemark>

    <Placemark>
      <name>Reforma - Bucareli</name>
      <description><![CDATA[<b> Estaci贸n EcoBici</b><br/>#锔 Estaci贸n: CE-029<br/> Capacidad: 28<br/>]]></description>
      <Point>
        <coordinates>-99.1498108,19.4353182,0</coordinates>
      </Point>
    </Placemark>

    <Placemark>
      <name>Reforma - Circuito Mahatma Gandhi</name>
      <description><![CDATA[<b> Estaci贸n EcoBici</b><br/>#锔 Estaci贸n: CE-195<br/> Capacidad: 30<br/>]]></description>
      <Point>
        <coordinates>-99.193699,19.4259699,0</coordinates>
      </Point>
    </Placemark>

    <Placemark>
      <name>Reforma - Dubl铆n</name>
      <description><![CDATA[<b> Estaci贸n EcoBici</b><br/>#锔 Estaci贸n: CE-021<br/> Capacidad: 30<br/><p>Zona hotelera</p><br/> Av. Paseo de la Reforma esquina Dubl铆n, Ju谩rez, Cuauht茅moc, 06600 Ciudad de M茅xico]]></description>
      <Point>
        <coordinates>-99.1723008,19.4243834,0</coordinates>
      </Point>
    </Placemark>

    <Placemark>
      <name>Reforma - Estocolmo</name>
      <description><![CDATA[<b> Estaci贸n EcoBici</b><br/>#锔 Estaci贸n: CE-025<br/> Capacidad: 30<br/><p>Zona financiera</p><br/> Av. Paseo de la Reforma esquina Estocolmo, Ju谩rez, Cuauht茅moc, 06600 Ciudad de M茅xico]]></description>
      <Point>
        <coordinates>-99.1662171,19.426443,0</coordinates>
      </Point>
    </Placemark>

    <Placemark>
      <name>Reforma - Havre</name>
      <description><![CDATA[<b> Estaci贸n EcoBici</b><br/>#锔 Estaci贸n: CE-027<br/> Capacidad: 30<br/><p>Zona tur铆stica</p><br/> Av. Paseo de la Reforma esquina Havre, Ju谩rez, Cuauht茅moc, 06600 Ciudad de M茅xico]]></description>
      <Point>
        <coordinates>-99.1624793,19.4290107,0</coordinates>
      </Point>
    </Placemark>

    <Placemark>
      <name>Reforma - Manchester</name>
      <description><![CDATA[<b> Estaci贸n EcoBici</b><br/>#锔 Estaci贸n: CE-022<br/> Capacidad: 30<br/><p>Zona de oficinas</p><br/> Av. Paseo de la Reforma esquina Manchester, Ju谩rez, Cuauht茅moc, 06600 Ciudad de M茅xico]]></description>
      <Point>
        <coordinates>-99.133208,19.4326077,0</coordinates>
      </Point>
    </Placemark>

    <Placemark>
      <name>Reforma - Praga</name>
      <description><![CDATA[<b> Estaci贸n EcoBici</b><br/>#锔 Estaci贸n: CE-023<br/> Capacidad: 30<br/><p>Cerca del ngel</p><br/> Av. Paseo de la Reforma esquina Praga, Ju谩rez, Cuauht茅moc, 06600 Ciudad de M茅xico]]></description>
      <Point>
        <coordinates>-99.1701199,19.4254092,0</coordinates>
      </Point>
    </Placemark>

    <Placemark>
      <name>Reforma - R铆o de Plata</name>
      <description><![CDATA[<b> Estaci贸n EcoBici</b><br/>#锔 Estaci贸n: CE-014<br/> Capacidad: 30<br/><p>Frente a oficinas</p><br/> Av. Paseo de la Reforma esquina R铆o de Plata, Cuauht茅moc, 06500 Ciudad de M茅xico]]></description>
      <Point>
        <coordinates>-99.1730969,19.4247892,0</coordinates>
      </Point>
    </Placemark>

    <Placemark>
      <name>Reforma - R铆o Mississippi</name>
      <description><![CDATA[<b> Estaci贸n EcoBici</b><br/>#锔 Estaci贸n: CE-013<br/> Capacidad: 30<br/><p>Cerca de hoteles</p><br/> Av. Paseo de la Reforma esquina R铆o Mississippi, Cuauht茅moc, 06500 Ciudad de M茅xico]]></description>
      <Point>
        <coordinates>-99.1718773,19.4255964,0</coordinates>
      </Point>
    </Placemark>

    <Placemark>
      <name>Reforma - R铆o Rhin</name>
      <description><![CDATA[<b> Estaci贸n EcoBici</b><br/>#锔 Estaci贸n: CE-019<br/> Capacidad: 30<br/><p>Zona empresarial</p><br/> Av. Paseo de la Reforma esquina R铆o Rhin, Cuauht茅moc, 06500 Ciudad de M茅xico]]></description>
      <Point>
        <coordinates>-99.1639931,19.429382,0</coordinates>
      </Point>
    </Placemark>

    <Placemark>
      <name>Reforma - R铆o T谩mesis</name>
      <description><![CDATA[<b> Estaci贸n EcoBici</b><br/>#锔 Estaci贸n: CE-020<br/> Capacidad: 30<br/><p>Frente al ngel</p><br/> Av. Paseo de la Reforma esquina R铆o T谩mesis, Ju谩rez, Cuauht茅moc, 06600 Ciudad de M茅xico]]></description>
      <Point>
        <coordinates>-99.1603992,19.4308699,0</coordinates>
      </Point>
    </Placemark>

    <Placemark>
      <name>Reforma - R铆o Tiber</name>
      <description><![CDATA[<b> Estaci贸n EcoBici</b><br/>#锔 Estaci贸n: CE-017<br/> Capacidad: 30<br/><p>Zona tur铆stica</p><br/> Av. Paseo de la Reforma esquina R铆o Tiber, Cuauht茅moc, 06500 Ciudad de M茅xico]]></description>
      <Point>
        <coordinates>-99.1680707,19.4277598,0</coordinates>
      </Point>
    </Placemark>

    <Placemark>
      <name>Reforma - Varsovia</name>
      <description><![CDATA[<b> Estaci贸n EcoBici</b><br/>#锔 Estaci贸n: CE-024<br/> Capacidad: 30<br/><p>Frente a edificios</p><br/> Av. Paseo de la Reforma esquina Varsovia, Ju谩rez, Cuauht茅moc, 06600 Ciudad de M茅xico]]></description>
      <Point>
        <coordinates>-99.16885,19.42628,0</coordinates>
      </Point>
    </Placemark>

    <Placemark>
      <name>Rep煤blica de Argentina - Justo Sierra</name>
      <description><![CDATA[<b> Estaci贸n EcoBici</b><br/>#锔 Estaci贸n: 92<br/> Capacidad: 24<br/>]]></description>
      <Point>
        <coordinates>-99.1317303,19.4357078,0</coordinates>
      </Point>
    </Placemark>

    <Placemark>
      <name>Rep煤blica de Cuba-Allende</name>
      <description><![CDATA[<b> Estaci贸n EcoBici</b><br/>#锔 Estaci贸n: CE-091<br/> Capacidad: 30<br/>]]></description>
      <Point>
        <coordinates>-99.137766,19.4374084,0</coordinates>
      </Point>
    </Placemark>

    <Placemark>
      <name>Revillagigedo - Ju谩rez</name>
      <description><![CDATA[<b> Estaci贸n EcoBici</b><br/>#锔 Estaci贸n: CE-043<br/> Capacidad: 26<br/>]]></description>
      <Point>
        <coordinates>-99.1465884,19.4312267,0</coordinates>
      </Point>
    </Placemark>

    <Placemark>
      <name>Rub茅n Dar铆o - Reforma</name>
      <description><![CDATA[<b> Estaci贸n EcoBici</b><br/>#锔 Estaci贸n: CE-192-193<br/> Capacidad: 30<br/>]]></description>
      <Point>
        <coordinates>-99.1913444,19.4257872,0</coordinates>
      </Point>
    </Placemark>

    <Placemark>
      <name>Toledo - Tokio</name>
      <description><![CDATA[<b> Estaci贸n EcoBici</b><br/>#锔 Estaci贸n: CE-028<br/> Capacidad: 25<br/><p>Zona comercial</p><br/> Toledo esquina Tokio, Ju谩rez, Cuauht茅moc, 06600 Ciudad de M茅xico]]></description>
      <Point>
        <coordinates>-99.1723917,19.4234805,0</coordinates>
      </Point>
    </Placemark>

    <Placemark>
      <name>Tres Picos - Arqu铆mides</name>
      <description><![CDATA[<b> Estaci贸n EcoBici</b><br/>#锔 Estaci贸n: CE-234<br/> Capacidad: 30<br/>]]></description>
      <Point>
        <coordinates>-99.1917345,19.4277911,0</coordinates>
      </Point>
    </Placemark>

    <Placemark>
      <name>Universidad-Copilco</name>
      <description><![CDATA[<b> Estaci贸n EcoBici</b><br/> Capacidad: 32<br/> Av. Universidad]]></description>
      <Point>
        <coordinates>-99.175,19.3385,0</coordinates>
      </Point>
    </Placemark>

    <Placemark>
      <name>Villa Guadalupe Centro</name>
      <description><![CDATA[<b> Estaci贸n EcoBici</b><br/> Capacidad: 35<br/> Centro de La Villa]]></description>
      <Point>
        <coordinates>-99.1135903,19.4838854,0</coordinates>
      </Point>
    </Placemark>

    <Placemark>
      <name>Viveros-Coyoac谩n</name>
      <description><![CDATA[<b> Estaci贸n EcoBici</b><br/> Capacidad: 35<br/> Viveros de Coyoac谩n]]></description>
      <Point>
        <coordinates>-99.1708,19.359,0</coordinates>
      </Point>
    </Placemark>

    <Placemark>
      <name>Z贸calo - Monte de Piedad</name>
      <description><![CDATA[<b> Estaci贸n EcoBici</b><br/>#锔 Estaci贸n: 88<br/> Capacidad: 30<br/>]]></description>
      <Point>
        <coordinates>-99.1333215,19.432642,0</coordinates>
      </Point>
    </Placemark>
  </Document>
</kml>